$GPGGA,175830.00,5034.53781,N,01210.61554,E,1,04,8.60,325.0,M,47.2,M,,*50
$GPGSA,A,3,29,30,21,24,,,,,,,,,15.25,8.60,12.60*07
$GPGSV,3,1,11,29,66,066,25,30,29,131,19,31,44,236,31,21,50,175,31*74
$GPGSV,3,2,11,16,34,301,32,10,20,061,15,23,06,314,19,13,05,348,11*7A
$GPGSV,3,3,11,24,61,096,29,12,02,126,21,06,03,260,*4A
$GPGLL,5034.53781,N,01210.61554,E,175830.00,A,A*6A
$GPZDA,175830.00,30,07,2009,00,00*61
$GPRMC,175831.00,A,5034.55004,N,01210.56030,E,69.629,257.20,300709,,,A*5E
$GPVTG,257.20,T,,M,69.629,N,129.022,K,A*07
$GPGGA,175831.00,5034.55004,N,01210.56030,E,1,03,3.41,261.0,M,47.2,M,,*50
$GPGSA,A,2,30,21,24,,,,,,,,,,3.56,3.41,1.00*02
$GPGSV,3,1,11,29,66,066,24,30,29,131,14,31,44,236,31,21,50,175,32*7B
$GPGSV,3,2,11,16,34,301,28,10,20,061,17,23,06,314,26,13,05,348,14*7A
$GPGSV,3,3,11,24,61,096,29,12,02,126,22,06,03,260,*49
$GPGLL,5034.55004,N,01210.56030,E,175831.00,A,A*64
$GPZDA,175831.00,30,07,2009,00,00*60
$GPRMC,175832.00,A,5034.56198,N,01210.50395,E,68.447,256.46,300709,,,A*5A
$GPVTG,256.46,T,,M,68.447,N,126.833,K,A*0A
$GPGGA,175832.00,5034.56198,N,01210.50395,E,1,03,3.41,189.8,M,47.2,M,,*53
$GPGSA,A,2,30,21,24,,,,,,,,,,3.55,3.41,1.00*01
$GPGSV,3,1,11,29,66,066,24,30,29,131,17,31,44,236,30,21,50,175,29*73
$GPGSV,3,2,11,16,34,301,28,10,20,061,17,23,06,314,26,13,05,348,20*7D
$GPGSV,3,3,11,24,61,096,31,12,02,126,,06,03,260,*40
$GPGLL,5034.56198,N,01210.50395,E,175832.00,A,A*6A
$GPZDA,175832.00,30,07,2009,00,00*63
$GPRMC,175833.00,A,5034.56594,N,01210.46068,E,67.330,255.39,300709,,,A*56
$GPVTG,255.39,T,,M,67.330,N,124.763,K,A*01
$GPGGA,175833.00,5034.56594,N,01210.46068,E,1,03,3.41,151.7,M,47.2,M,,*56
$GPGSA,A,2,30,21,24,,,,,,,,,,3.55,3.41,1.00*01
$GPGSV,3,1,11,29,66,066,23,30,29,131,26,31,44,236,30,21,50,175,27*78
$GPGSV,3,2,11,16,34,301,30,10,20,061,17,23,06,314,25,13,05,348,19*7D
$GPGSV,3,3,11,24,61,096,34,12,02,126,,06,03,260,*45
$GPGLL,5034.56594,N,01210.46068,E,175833.00,A,A*65
$GPZDA,175833.00,30,07,2009,00,00*62
$GPRMC,175834.00,A,5034.56299,N,01210.42303,E,68.935,253.85,300709,,,A*50
$GPVTG,253.85,T,,M,68.935,N,127.736,K,A*03
$GPGGA,175834.00,5034.56299,N,01210.42303,E,1,03,3.41,130.5,M,47.2,M,,*54
$GPGSA,A,2,30,21,24,,,,,,,,,,3.55,3.41,1.00*01
$GPGSV,3,1,11,29,66,066,28,30,29,131,28,31,44,236,27,21,50,175,32*7F
$GPGSV,3,2,11,16,34,301,21,10,20,061,18,23,06,314,19,13,05,348,17*73
$GPGSV,3,3,11,24,61,096,34,12,02,126,,06,03,260,*45
$GPGLL,5034.56299,N,01210.42303,E,175834.00,A,A*62
$GPZDA,175834.00,30,07,2009,00,00*65
$GPRMC,175835.00,A,5034.55710,N,01210.38921,E,69.590,252.01,300709,,,A*5E
$GPVTG,252.01,T,,M,69.590,N,128.950,K,A*0D
$GPGGA,175835.00,5034.55710,N,01210.38921,E,1,03,3.41,118.3,M,47.2,M,,*59
$GPGSA,A,2,30,21,24,,,,,,,,,,3.56,3.41,1.00*02
$GPGSV,3,1,11,29,66,066,27,30,29,131,38,31,44,236,23,21,50,175,30*77
$GPGSV,3,2,11,16,34,301,22,10,20,061,17,23,06,314,22,13,05,348,26*75
$GPGSV,3,3,11,24,61,096,30,12,02,126,,06,03,260,*41
$GPGLL,5034.55710,N,01210.38921,E,175835.00,A,A*63
$GPZDA,175835.00,30,07,2009,00,00*64
$GPRMC,175836.00,A,5034.54811,N,01210.36120,E,68.710,249.73,300709,,,A*51
$GPVTG,249.73,T,,M,68.710,N,127.319,K,A*01
$GPGGA,175836.00,5034.54811,N,01210.36120,E,1,03,3.41,111.0,M,47.2,M,,*58
$GPGSA,A,2,30,21,24,,,,,,,,,,3.56,3.41,1.00*02
$GPGSV,3,1,11,29,66,066,28,30,29,131,41,31,44,236,28,21,50,175,23*7F
$GPGSV,3,2,11,16,34,301,24,10,20,061,17,23,06,314,27,13,05,348,25*75
$GPGSV,3,3,11,24,61,096,30,12,02,126,,06,03,260,*41
$GPGLL,5034.54811,N,01210.36120,E,175836.00,A,A*68
$GPZDA,175836.00,30,07,2009,00,00*67
$GPRMC,175837.00,A,5034.53767,N,01210.33577,E,68.146,247.31,300709,,,A*57
$GPVTG,247.31,T,,M,68.146,N,126.275,K,A*06
$GPGGA,175837.00,5034.53767,N,01210.33577,E,1,03,3.41,106.4,M,47.2,M,,*51
$GPGSA,A,2,30,21,24,,,,,,,,,,3.55,3.41,1.00*01
$GPGSV,3,1,11,29,66,066,28,30,29,131,39,31,44,236,28,21,50,175,26*75
$GPGSV,3,2,11,16,34,301,27,10,20,061,20,23,06,314,26,13,05,348,21*77
$GPGSV,3,3,11,24,61,096,30,12,02,126,,06,03,260,*41
$GPGLL,5034.53767,N,01210.33577,E,175837.00,A,A*63
$GPZDA,175837.00,30,07,2009,00,00*66
$GPRMC,175838.00,A,5034.52674,N,01210.31273,E,67.362,244.77,300709,,,A*51
$GPVTG,244.77,T,,M,67.362,N,124.822,K,A*06
$GPGGA,175838.00,5034.52674,N,01210.31273,E,1,03,3.41,103.5,M,47.2,M,,*59
$GPGSA,A,2,30,21,24,,,,,,,,,,3.55,3.41,1.00*01
$GPGSV,3,1,11,29,66,066,21,30,29,131,38,31,44,236,22,21,50,175,26*77
$GPGSV,3,2,11,16,34,301,25,10,20,061,21,23,06,314,27,13,05,348,21*75
$GPGSV,3,3,11,24,61,096,34,12,02,126,,06,03,260,*45
$GPGLL,5034.52674,N,01210.31273,E,175838.00,A,A*6F
$GPZDA,175838.00,30,07,2009,00,00*69
$GPRMC,175839.00,A,5034.51222,N,01210.29078,E,71.446,242.02,300709,,,A*56
$GPVTG,242.02,T,,M,71.446,N,132.390,K,A*01
$GPGGA,175839.00,5034.51222,N,01210.29078,E,1,03,3.41,101.6,M,47.2,M,,*5D
$GPGSA,A,2,30,21,24,,,,,,,,,,3.55,3.41,1.00*01
$GPGSV,3,1,11,29,66,066,25,30,29,131,34,31,44,236,26,21,50,175,32*7E
$GPGSV,3,2,11,16,34,301,21,10,20,061,22,23,06,314,25,13,05,348,20*71
$GPGSV,3,3,11,24,61,096,36,12,02,126,,06,03,260,*47
$GPGLL,5034.51222,N,01210.29078,E,175839.00,A,A*6A
$GPZDA,175839.00,30,07,2009,00,00*68
$GPRMC,175840.00,A,5034.49846,N,01210.26936,E,70.204,239.34,300709,,,A*5D
$GPVTG,239.34,T,,M,70.204,N,130.088,K,A*01
$GPGGA,175840.00,5034.49846,N,01210.26936,E,1,03,3.41,100.5,M,47.2,M,,*5C
$GPGSA,A,2,30,21,24,,,,,,,,,,3.55,3.41,1.00*01
$GPGSV,3,1,11,29,66,066,26,30,29,131,34,31,44,236,21,21,51,175,31*78
$GPGSV,3,2,11,16,34,301,24,10,20,061,29,23,06,314,29,13,05,348,26*75
$GPGSV,3,3,11,24,61,096,34,12,02,126,,06,03,260,*45
$GPGLL,5034.49846,N,01210.26936,E,175840.00,A,A*69
$GPZDA,175840.00,30,07,2009,00,00*66
$GPRMC,175841.00,A,5034.48383,N,01210.24844,E,69.896,236.65,300709,,,A*5B
$GPVTG,236.65,T,,M,69.896,N,129.517,K,A*08
$GPGGA,175841.00,5034.48383,N,01210.24844,E,1,03,3.41,99.7,M,47.2,M,,*6B
$GPGSA,A,2,30,21,24,,,,,,,,,,3.55,3.41,1.00*01
$GPGSV,3,1,11,29,66,066,26,30,29,131,27,31,44,236,23,21,51,175,31*78
$GPGSV,3,2,11,16,34,301,26,10,20,061,29,23,06,314,28,13,05,348,27*77
$GPGSV,3,3,11,24,61,096,36,12,02,126,,06,03,260,*47
$GPGLL,5034.48383,N,01210.24844,E,175841.00,A,A*6D
$GPZDA,175841.00,30,07,2009,00,00*67
$GPRMC,175842.00,A,5034.46882,N,01210.22981,E,68.848,233.95,300709,,,A*5A
$GPVTG,233.95,T,,M,68.848,N,127.575,K,A*0A
$GPGGA,175842.00,5034.46882,N,01210.22981,E,1,03,3.40,99.3,M,47.2,M,,*67
$GPGSA,A,2,30,21,24,,,,,,,,,,3.55,3.40,1.00*00
$GPGSV,3,1,11,29,66,066,26,30,29,131,24,31,44,236,28,21,51,175,26*76
$GPGSV,3,2,11,16,34,301,26,10,20,061,27,23,06,314,25,13,05,348,18*78
$GPGSV,3,3,11,24,61,096,37,12,02,126,,06,03,260,*46
$GPGLL,5034.46882,N,01210.22981,E,175842.00,A,A*64
$GPZDA,175842.00,30,07,2009,00,00*64
$GPRMC,175843.00,A,5034.45268,N,01210.21420,E,70.462,231.03,300709,,,A*53
$GPVTG,231.03,T,,M,70.462,N,130.567,K,A*0F
$GPGGA,175843.00,5034.45268,N,01210.21420,E,1,03,3.40,98.9,M,47.2,M,,*65
$GPGSA,A,2,30,21,24,,,,,,,,,,3.55,3.40,1.00*00
$GPGSV,3,1,11,29,66,066,31,30,29,131,30,31,44,236,26,21,51,175,33*7F
$GPGSV,3,2,11,16,34,301,34,10,20,061,22,23,06,314,29,13,05,348,22*7B
$GPGSV,3,3,11,24,61,096,38,12,02,126,,06,03,260,*49
$GPGLL,5034.45268,N,01210.21420,E,175843.00,A,A*6D
$GPZDA,175843.00,30,07,2009,00,00*65
$GPRMC,175844.00,A,5034.43535,N,01210.20170,E,70.594,227.96,300709,,,A*5F
$GPVTG,227.96,T,,M,70.594,N,130.811,K,A*00
$GPGGA,175844.00,5034.43535,N,01210.20170,E,1,03,3.40,98.7,M,47.2,M,,*64
$GPGSA,A,2,30,21,24,,,,,,,,,,3.55,3.40,1.00*00
$GPGSV,3,1,11,29,66,066,30,30,29,131,29,31,44,236,31,21,51,175,33*70
$GPGSV,3,2,11,16,34,301,31,10,20,061,29,23,06,314,30,13,05,348,28*77
$GPGSV,3,3,11,24,61,096,36,12,02,126,,06,03,260,*47
$GPGLL,5034.43535,N,01210.20170,E,175844.00,A,A*62
$GPZDA,175844.00,30,07,2009,00,00*62
$GPRMC,175845.00,A,5034.41726,N,01210.18947,E,69.113,224.85,300709,,,A*59
$GPVTG,224.85,T,,M,69.113,N,128.066,K,A*03
$GPGGA,175845.00,5034.41726,N,01210.18947,E,1,03,3.40,98.5,M,47.2,M,,*62
$GPGSA,A,2,30,21,24,,,,,,,,,,3.55,3.40,1.00*00
$GPGSV,3,1,11,29,66,066,31,30,29,131,29,31,44,236,28,21,51,175,34*7E
$GPGSV,3,2,11,16,34,301,24,10,20,061,30,23,06,314,26,13,05,348,22*76
$GPGSV,3,3,11,24,61,096,37,12,02,126,,06,03,260,*46
$GPGLL,5034.41726,N,01210.18947,E,175845.00,A,A*66
$GPZDA,175845.00,30,07,2009,00,00*63
$GPRMC,175846.00,A,5034.39852,N,01210.17998,E,69.381,221.72,300709,,,A*50
$GPVTG,221.72,T,,M,69.381,N,128.563,K,A*07
$GPGGA,175846.00,5034.39852,N,01210.17998,E,1,03,3.41,98.3,M,47.2,M,,*68
$GPGSA,A,2,30,21,24,,,,,,,,,,3.55,3.41,1.00*01
$GPGSV,3,1,11,29,66,066,33,30,29,131,26,31,44,236,24,21,51,175,30*7B
$GPGSV,3,2,11,16,34,301,31,10,20,061,29,23,06,314,25,13,05,348,20*7B
$GPGSV,3,3,11,24,61,096,37,12,02,126,,06,03,260,*46
$GPGLL,5034.39852,N,01210.17998,E,175846.00,A,A*6B
$GPZDA,175846.00,30,07,2009,00,00*60
$GPRMC,175847.00,A,5034.38070,N,01210.16909,E,68.561,219.04,300709,,,A*52
$GPVTG,219.04,T,,M,68.561,N,127.044,K,A*0B
$GPGGA,175847.00,5034.38070,N,01210.16909,E,1,03,3.40,98.2,M,47.2,M,,*69
$GPGSA,A,2,30,21,24,,,,,,,,,,3.55,3.40,1.00*00
$GPGSV,3,1,11,29,66,066,33,30,29,131,19,31,44,236,22,21,51,175,30*71
$GPGSV,3,2,11,16,34,301,,10,20,061,20,23,06,314,18,13,05,348,15*78
$GPGSV,3,3,11,24,61,096,32,12,02,126,,06,03,260,*43
$GPGLL,5034.38070,N,01210.16909,E,175847.00,A,A*6A
$GPZDA,175847.00,30,07,2009,00,00*61
$GPRMC,175848.00,A,5034.36298,N,01210.15902,E,68.561,216.70,300709,,,A*53
$GPVTG,216.70,T,,M,68.561,N,127.044,K,A*07
$GPGGA,175848.00,5034.36298,N,01210.15902,E,1,03,3.41,98.1,M,47.2,M,,*66
$GPGSA,A,2,30,21,24,,,,,,,,,,3.55,3.41,1.00*01
$GPGSV,3,1,11,29,65,067,36,30,29,131,17,31,44,236,15,21,51,175,30*7C
$GPGSV,3,2,11,16,34,301,,10,20,061,16,23,06,314,14,13,05,348,*75
$GPGSV,3,3,11,24,61,096,35,12,02,126,,06,03,260,*44
$GPGLL,5034.36298,N,01210.15902,E,175848.00,A,A*67
$GPZDA,175848.00,30,07,2009,00,00*6E
$GPRMC,175849.00,A,5034.33341,N,01210.17044,E,70.903,213.76,300709,,,A*59
$GPVTG,213.76,T,,M,70.903,N,131.383,K,A*0A
$GPGGA,175849.00,5034.33341,N,01210.17044,E,1,04,8.67,98.3,M,47.2,M,,*64
$GPGSA,A,3,29,30,21,24,,,,,,,,,15.33,8.67,12.64*03
$GPGSV,3,1,11,29,65,067,37,30,28,131,16,31,44,236,19,21,51,175,30*71
$GPGSV,3,2,11,16,34,301,,10,20,061,13,23,06,314,14,13,05,348,*70
$GPGSV,3,3,11,24,61,096,34,12,02,126,,06,03,260,*45
$GPGLL,5034.33341,N,01210.17044,E,175849.00,A,A*6F
$GPZDA,175849.00,30,07,2009,00,00*6F
$GPRMC,175850.00,A,5034.30630,N,01210.17932,E,72.103,210.70,300709,,,A*56
$GPVTG,210.70,T,,M,72.103,N,133.606,K,A*0F
$GPGGA,175850.00,5034.30630,N,01210.17932,E,1,04,8.68,98.5,M,47.2,M,,*6D
$GPGSA,A,3,29,30,21,24,,,,,,,,,15.35,8.68,12.66*08
$GPGSV,3,1,11,29,65,067,37,30,28,131,18,31,44,235,20,21,51,175,30*76
$GPGSV,3,2,11,16,34,301,,10,20,061,11,23,06,314,15,13,05,348,*73
$GPGSV,3,3,11,24,61,096,35,12,02,126,,06,03,260,*44
$GPGLL,5034.30630,N,01210.17932,E,175850.00,A,A*6F
$GPZDA,175850.00,30,07,2009,00,00*67
$GPRMC,175851.00,A,5034.28504,N,01210.17774,E,67.521,208.41,300709,,,A*5D
$GPVTG,208.41,T,,M,67.521,N,125.117,K,A*04
$GPGGA,175851.00,5034.28504,N,01210.17774,E,1,04,8.68,98.7,M,47.2,M,,*6F
$GPGSA,A,3,29,30,21,24,,,,,,,,,15.35,8.68,12.66*08
$GPGSV,3,1,11,29,65,067,37,30,28,131,25,31,44,235,20,21,51,175,30*78
$GPGSV,3,2,11,16,34,301,,10,20,061,10,23,06,314,13,13,05,348,*74
$GPGSV,3,3,11,24,61,096,36,12,02,126,,06,03,260,*47
$GPGLL,5034.28504,N,01210.17774,E,175851.00,A,A*6F
$GPZDA,175851.00,30,07,2009,00,00*66
$GPRMC,175852.00,A,5034.25540,N,01210.19540,E,65.652,206.28,300709,,,A*5C
$GPVTG,206.28,T,,M,65.652,N,121.652,K,A*02
$GPGGA,175852.00,5034.25540,N,01210.19540,E,1,04,8.70,99.1,M,47.2,M,,*64
$GPGSA,A,3,29,30,21,24,,,,,,,,,15.37,8.70,12.67*02
$GPGSV,3,1,11,29,65,067,37,30,28,131,31,31,44,235,20,21,51,175,30*7D
$GPGSV,3,2,11,16,34,301,,10,20,061,23,23,06,314,11,13,05,348,*76
$GPGSV,3,3,11,24,61,096,36,12,02,126,20,06,03,260,*45
$GPGLL,5034.25540,N,01210.19540,E,175852.00,A,A*6A
$GPZDA,175852.00,30,07,2009,00,00*65
$GPRMC,175853.00,A,5034.23293,N,01210.19740,E,66.105,204.51,300709,,,A*5A
$GPVTG,204.51,T,,M,66.105,N,122.493,K,A*04
$GPGGA,175853.00,5034.23293,N,01210.19740,E,1,04,8.69,99.6,M,47.2,M,,*67
$GPGSA,A,3,29,30,21,24,,,,,,,,,15.35,8.69,12.66*09
$GPGSV,3,1,11,29,65,067,37,30,28,131,31,31,44,235,20,21,51,175,31*7C
$GPGSV,3,2,11,16,34,301,,10,20,061,26,23,06,314,,13,05,348,*73
$GPGSV,3,3,11,24,61,096,36,12,02,126,17,06,03,260,*41
$GPGLL,5034.23293,N,01210.19740,E,175853.00,A,A*66
$GPZDA,175853.00,30,07,2009,00,00*64
$GPRMC,175854.00,A,5034.21210,N,01210.19424,E,66.694,203.03,300709,,,A*5A
$GPVTG,203.03,T,,M,66.694,N,123.584,K,A*0D
$GPGGA,175854.00,5034.21210,N,01210.19424,E,1,04,8.69,100.0,M,47.2,M,,*5F
$GPGSA,A,3,29,30,21,24,,,,,,,,,15.36,8.69,12.66*0A
$GPGSV,3,1,11,29,65,067,37,30,28,131,31,31,44,235,20,21,51,175,29*75
$GPGSV,3,2,11,16,34,301,,10,20,061,26,23,06,314,,13,05,348,*73
$GPGSV,3,3,11,24,61,096,36,12,02,126,,06,03,260,*47
$GPGLL,5034.21210,N,01210.19424,E,175854.00,A,A*69
$GPZDA,175854.00,30,07,2009,00,00*63
$GPRMC,175855.00,A,5034.19198,N,01210.18911,E,67.211,201.81,300709,,,A*59
$GPVTG,201.81,T,,M,67.211,N,124.541,K,A*03
$GPGGA,175855.00,5034.19198,N,01210.18911,E,1,04,8.70,100.4,M,47.2,M,,*50
$GPGSA,A,3,29,30,21,24,,,,,,,,,15.38,8.70,12.68*02
$GPGSV,3,1,11,29,65,067,37,30,28,131,31,31,44,235,19,21,51,175,30*77
$GPGSV,3,2,11,16,34,301,,10,20,061,25,23,06,314,,13,05,348,*70
$GPGSV,3,3,11,24,61,096,37,12,02,126,,06,03,260,*46
$GPGLL,5034.19198,N,01210.18911,E,175855.00,A,A*6A
$GPZDA,175855.00,30,07,2009,00,00*62
$GPRMC,175856.00,A,5034.17090,N,01210.18416,E,68.251,200.81,300709,,,A*5D
$GPVTG,200.81,T,,M,68.251,N,126.469,K,A*00
$GPGGA,175856.00,5034.17090,N,01210.18416,E,1,04,8.70,100.7,M,47.2,M,,*5D
$GPGSA,A,3,29,30,21,24,,,,,,,,,15.37,8.70,12.67*02
$GPGSV,3,1,11,29,65,067,36,30,28,131,26,31,44,235,19,21,51,175,31*71
$GPGSV,3,2,11,16,34,301,,10,20,061,26,23,06,314,,13,05,348,*73
$GPGSV,3,3,11,24,61,096,36,12,02,126,,06,03,260,*47
$GPGLL,5034.17090,N,01210.18416,E,175856.00,A,A*64
$GPZDA,175856.00,30,07,2009,00,00*61
$GPRMC,175857.00,A,5034.15056,N,01210.17823,E,68.988,199.87,300709,,,A*5B
$GPVTG,199.87,T,,M,68.988,N,127.835,K,A*0E
$GPGGA,175857.00,5034.15056,N,01210.17823,E,1,04,8.70,101.0,M,47.2,M,,*57
$GPGSA,A,3,29,30,21,24,,,,,,,,,15.37,8.70,12.67*02
$GPGSV,3,1,11,29,65,067,35,30,28,131,27,31,44,235,20,21,51,175,31*79
$GPGSV,3,2,11,16,34,301,,10,20,061,22,23,06,314,,13,05,348,*77
$GPGSV,3,3,11,24,61,096,37,12,02,126,,06,03,260,*46
$GPGLL,5034.15056,N,01210.17823,E,175857.00,A,A*68
$GPZDA,175857.00,30,07,2009,00,00*60
$GPRMC,175858.00,A,5034.13045,N,01210.17248,E,69.754,198.89,300709,,,A*56
$GPVTG,198.89,T,,M,69.754,N,129.254,K,A*0C
$GPGGA,175858.00,5034.13045,N,01210.17248,E,1,04,8.71,101.3,M,47.2,M,,*59
$GPGSA,A,3,29,30,21,24,,,,,,,,,15.38,8.71,12.68*03
$GPGSV,3,1,11,29,65,067,33,30,28,131,28,31,44,235,24,21,51,175,31*74
$GPGSV,3,2,11,16,34,301,,10,20,061,22,23,06,314,,13,05,348,*77
$GPGSV,3,3,11,24,61,096,34,12,02,126,,06,03,260,*45
$GPGLL,5034.13045,N,01210.17248,E,175858.00,A,A*64
$GPZDA,175858.00,30,07,2009,00,00*6F
$GPRMC,175859.00,A,5034.10959,N,01210.16859,E,70.994,197.67,300709,,,A*5E
$GPVTG,197.67,T,,M,70.994,N,131.553,K,A*00
$GPGGA,175859.00,5034.10959,N,01210.16859,E,1,04,8.71,101.5,M,47.2,M,,*52
$GPGSA,A,3,29,30,21,24,,,,,,,,,15.38,8.71,12.68*03
$GPGSV,3,1,11,29,65,067,33,30,28,131,23,31,44,235,24,21,51,175,31*7F
$GPGSV,3,2,11,16,34,301,,10,20,061,26,23,06,314,,13,05,348,*73
$GPGSV,3,3,11,24,61,096,34,12,02,126,,06,03,260,*45
$GPGLL,5034.10959,N,01210.16859,E,175859.00,A,A*69
$GPZDA,175859.00,30,07,2009,00,00*6E
$GPRMC,175900.00,A,5034.08960,N,01210.16506,E,70.174,196.21,300709,,,A*52
$GPVTG,196.21,T,,M,70.174,N,130.031,K,A*05
$GPGGA,175900.00,5034.08960,N,01210.16506,E,1,04,8.71,101.7,M,47.2,M,,*59
$GPGSA,A,3,29,30,21,24,,,,,,,,,15.38,8.71,12.68*03
$GPGSV,3,1,11,29,65,067,32,30,28,131,19,31,44,235,19,21,51,175,30*78
$GPGSV,3,2,11,16,34,301,,10,20,061,26,23,06,314,,13,05,348,*73
$GPGSV,3,3,11,24,61,096,32,12,02,126,,06,03,260,*43
$GPGLL,5034.08960,N,01210.16506,E,175900.00,A,A*60
$GPZDA,175900.00,30,07,2009,00,00*63
$GPRMC,175901.00,A,5034.06866,N,01210.16261,E,72.369,194.85,300709,,,A*5C
$GPVTG,194.85,T,,M,72.369,N,134.100,K,A*02
$GPGGA,175901.00,5034.06866,N,01210.16261,E,1,04,8.72,101.7,M,47.2,M,,*54
$GPGSA,A,3,29,30,21,24,,,,,,,,,15.38,8.72,12.68*00
$GPGSV,3,1,11,29,65,067,35,30,28,131,22,31,44,235,26,21,51,175,30*7B
$GPGSV,3,2,11,16,34,301,,10,20,061,21,23,06,314,,13,05,348,*74
$GPGSV,3,3,11,24,61,096,28,12,02,126,,06,03,260,*48
$GPGLL,5034.06866,N,01210.16261,E,175901.00,A,A*6E
$GPZDA,175901.00,30,07,2009,00,00*62
$GPRMC,175902.00,A,5034.04787,N,01210.16054,E,73.401,193.41,300709,,,A*5E
$GPVTG,193.41,T,,M,73.401,N,136.012,K,A*05
$GPGGA,175902.00,5034.04787,N,01210.16054,E,1,04,8.73,101.8,M,47.2,M,,*5F
$GPGSA,A,3,29,30,21,24,,,,,,,,,15.40,8.73,12.69*0F
$GPGSV,3,1,11,29,65,067,32,30,28,131,22,31,44,235,27,21,51,175,29*75
$GPGSV,3,2,11,16,34,301,,10,20,061,31,23,06,314,,13,05,348,*75
$GPGSV,3,3,11,24,61,096,28,12,02,126,,06,03,260,*48
$GPGLL,5034.04787,N,01210.16054,E,175902.00,A,A*6B
$GPZDA,175902.00,30,07,2009,00,00*61
$GPRMC,175903.00,A,5034.02875,N,01210.16199,E,69.688,191.28,300709,,,A*5E
$GPVTG,191.28,T,,M,69.688,N,129.133,K,A*0C
$GPGGA,175903.00,5034.02875,N,01210.16199,E,1,04,8.73,101.7,M,47.2,M,,*55
$GPGSA,A,3,29,30,21,24,,,,,,,,,15.41,8.73,12.69*0E
$GPGSV,3,1,11,29,65,067,33,30,28,131,23,31,44,235,23,21,51,175,29*71
$GPGSV,3,2,11,16,34,301,,10,20,061,26,23,06,314,,13,05,348,*73
$GPGSV,3,3,11,24,61,096,23,12,02,126,,06,03,260,*43
$GPGLL,5034.02875,N,01210.16199,E,175903.00,A,A*6E
$GPZDA,175903.00,30,07,2009,00,00*60
$GPRMC,175904.00,A,5034.01067,N,01210.16154,E,66.739,174.38,300709,,,A*5E
$GPVTG,174.38,T,,M,66.739,N,123.667,K,A*0E
$GPGGA,175904.00,5034.01067,N,01210.16154,E,1,04,8.73,101.7,M,47.2,M,,*5B
$GPGSA,A,3,29,30,21,24,,,,,,,,,15.41,8.73,12.69*0E
$GPGSV,3,1,11,29,65,067,32,30,28,131,24,31,44,235,25,21,51,175,26*7E
$GPGSV,3,2,11,16,34,301,,10,20,061,29,23,06,314,22,13,05,348,*7C
$GPGSV,3,3,11,24,61,096,19,12,02,126,,06,03,260,*4A
$GPGLL,5034.01067,N,01210.16154,E,175904.00,A,A*60
$GPZDA,175904.00,30,07,2009,00,00*67
$GPRMC,175905.00,A,5033.99192,N,01210.16337,E,68.294,173.42,300709,,,A*53
$GPVTG,173.42,T,,M,68.294,N,126.549,K,A*02
$GPGGA,175905.00,5033.99192,N,01210.16337,E,1,04,8.73,101.8,M,47.2,M,,*5F
$GPGSA,A,3,29,30,21,24,,,,,,,,,15.41,8.73,12.69*0E
$GPGSV,3,1,11,29,65,067,25,30,28,131,23,31,44,235,24,21,51,175,26*7E
$GPGSV,3,2,11,16,34,301,,10,20,061,33,23,06,314,15,13,05,348,*73
$GPGSV,3,3,11,24,61,096,29,12,02,126,,06,03,260,*49
$GPGLL,5033.99192,N,01210.16337,E,175905.00,A,A*6B
$GPZDA,175905.00,30,07,2009,00,00*66
$GPRMC,175906.00,A,5033.97373,N,01210.16583,E,68.786,171.74,300709,,,A*5B
$GPVTG,171.74,T,,M,68.786,N,127.461,K,A*09
$GPGGA,175906.00,5033.97373,N,01210.16583,E,1,04,8.75,101.9,M,47.2,M,,*51
$GPGSA,A,3,29,30,21,24,,,,,,,,,15.43,8.75,12.71*03
$GPGSV,3,1,11,29,65,067,21,30,28,131,24,31,44,235,25,21,51,175,27*7D
$GPGSV,3,2,11,16,34,301,,10,20,061,36,23,06,314,16,13,05,348,*75
$GPGSV,3,3,11,24,61,096,25,12,02,126,,06,03,260,*45
$GPGLL,5033.97373,N,01210.16583,E,175906.00,A,A*62
$GPZDA,175906.00,30,07,2009,00,00*65
$GPRMC,175907.00,A,5033.95497,N,01210.17294,E,69.247,168.19,300709,,,A*5F
$GPVTG,168.19,T,,M,69.247,N,128.315,K,A*08
$GPGGA,175907.00,5033.95497,N,01210.17294,E,1,04,8.75,102.0,M,47.2,M,,*55
$GPGSA,A,3,29,30,21,24,,,,,,,,,15.42,8.75,12.70*03
$GPGSV,3,1,11,29,65,067,30,30,28,131,17,31,44,235,27,21,51,175,27*7F
$GPGSV,3,2,11,16,34,301,,10,20,061,35,23,06,314,19,13,05,348,*79
$GPGSV,3,3,11,24,61,096,26,12,02,126,,06,03,260,*46
$GPGLL,5033.95497,N,01210.17294,E,175907.00,A,A*6C
$GPZDA,175907.00,30,07,2009,00,00*64
$GPRMC,175908.00,A,5033.93814,N,01210.18113,E,68.154,163.52,300709,,,A*56
$GPVTG,163.52,T,,M,68.154,N,126.290,K,A*0E
$GPGGA,175908.00,5033.93814,N,01210.18113,E,1,04,8.76,102.0,M,47.2,M,,*5B
$GPGSA,A,3,29,30,21,24,,,,,,,,,15.45,8.76,12.72*05
$GPGSV,3,1,11,29,65,067,31,30,28,131,23,31,44,235,23,21,51,175,28*72
$GPGSV,3,2,11,16,34,301,,10,20,061,28,23,06,314,24,13,05,348,*7B
$GPGSV,3,3,11,24,61,096,27,12,02,126,,06,03,260,*47
$GPGLL,5033.93814,N,01210.18113,E,175908.00,A,A*61
$GPZDA,175908.00,30,07,2009,00,00*6B
$GPRMC,175909.00,A,5033.92133,N,01210.18847,E,68.701,162.15,300709,,,A*56
$GPVTG,162.15,T,,M,68.701,N,127.303,K,A*00
$GPGGA,175909.00,5033.92133,N,01210.18847,E,1,04,8.77,102.1,M,47.2,M,,*5F
$GPGSA,A,3,29,30,21,24,,,,,,,,,15.45,8.77,12.72*04
$GPGSV,3,1,11,29,65,067,33,30,28,131,24,31,44,235,15,21,51,175,25*7F
$GPGSV,3,2,11,16,34,301,,10,20,061,31,23,06,314,21,13,05,348,*76
$GPGSV,3,3,11,24,61,096,28,12,02,126,,06,03,260,*48
$GPGLL,5033.92133,N,01210.18847,E,175909.00,A,A*65
$GPZDA,175909.00,30,07,2009,00,00*6A
$GPRMC,175910.00,A,5033.90750,N,01210.19244,E,67.273,160.81,300709,,,A*57
$GPVTG,160.81,T,,M,67.273,N,124.657,K,A*07
$GPGGA,175910.00,5033.90750,N,01210.19244,E,1,04,8.76,102.3,M,47.2,M,,*5D
$GPGSA,A,3,29,30,21,24,,,,,,,,,15.43,8.76,12.71*00
$GPGSV,3,1,11,29,65,067,35,30,28,131,28,31,44,235,14,21,51,175,21*70
$GPGSV,3,2,11,16,34,301,,10,20,061,30,23,06,314,20,13,05,348,*76
$GPGSV,3,3,11,24,61,096,28,12,02,126,,06,03,260,*48
$GPGLL,5033.90750,N,01210.19244,E,175910.00,A,A*64
$GPZDA,175910.00,30,07,2009,00,00*62
$GPRMC,175911.00,A,5033.89132,N,01210.19923,E,68.030,161.12,300709,,,A*57
$GPVTG,161.12,T,,M,68.030,N,126.060,K,A*06
$GPGGA,175911.00,5033.89132,N,01210.19923,E,1,04,8.78,102.4,M,47.2,M,,*55
$GPGSA,A,3,29,30,21,24,,,,,,,,,15.46,8.78,12.73*09
$GPGSV,3,1,11,29,65,067,34,30,28,131,27,31,44,235,18,21,51,175,22*71
$GPGSV,3,2,11,16,34,301,,10,20,061,31,23,06,314,20,13,05,348,*77
$GPGSV,3,3,11,24,61,096,28,12,02,126,,06,03,260,*48
$GPGLL,5033.89132,N,01210.19923,E,175911.00,A,A*65
$GPZDA,175911.00,30,07,2009,00,00*63
$GPRMC,175912.00,A,5033.87449,N,01210.20718,E,69.087,161.04,300709,,,A*55
$GPVTG,161.04,T,,M,69.087,N,128.018,K,A*0D
$GPGGA,175912.00,5033.87449,N,01210.20718,E,1,04,8.77,102.5,M,47.2,M,,*53
$GPGSA,A,3,29,30,21,24,,,,,,,,,15.45,8.77,12.72*04
$GPGSV,3,1,11,29,65,067,33,30,28,131,28,31,44,235,18,21,51,175,23*78
$GPGSV,3,2,11,16,34,301,,10,20,061,31,23,06,314,19,13,05,348,*7D
$GPGSV,3,3,11,24,61,096,29,12,02,126,,06,03,260,*49
$GPGLL,5033.87449,N,01210.20718,E,175912.00,A,A*6D
$GPZDA,175912.00,30,07,2009,00,00*60
$GPRMC,175913.00,A,5033.85717,N,01210.21709,E,69.681,161.21,300709,,,A*58
$GPVTG,161.21,T,,M,69.681,N,129.119,K,A*0B
$GPGGA,175913.00,5033.85717,N,01210.21709,E,1,04,8.78,102.7,M,47.2,M,,*54
$GPGSA,A,3,29,30,21,24,,,,,,,,,15.46,8.78,12.73*09
$GPGSV,3,1,11,29,65,067,36,30,28,131,28,31,44,235,18,21,51,175,22*7C
$GPGSV,3,2,11,16,34,301,,10,20,061,30,23,06,314,16,13,05,348,*73
$GPGSV,3,3,11,24,61,096,32,12,02,126,,06,03,260,*43
$GPGLL,5033.85717,N,01210.21709,E,175913.00,A,A*67
$GPZDA,175913.00,30,07,2009,00,00*61
$GPRMC,175914.00,A,5033.83916,N,01210.22732,E,69.749,162.60,300709,,,A*5E
$GPVTG,162.60,T,,M,69.749,N,129.244,K,A*03
$GPGGA,175914.00,5033.83916,N,01210.22732,E,1,04,8.79,102.7,M,47.2,M,,*50
$GPGSA,A,3,29,30,21,24,,,,,,,,,15.48,8.79,12.74*01
$GPGSV,3,1,11,29,65,067,35,30,28,131,23,31,44,235,25,21,51,175,23*7B
$GPGSV,3,2,11,16,34,301,,10,20,061,30,23,06,314,16,13,05,348,*73
$GPGSV,3,3,11,24,61,096,31,12,02,126,,06,03,260,*40
$GPGLL,5033.83916,N,01210.22732,E,175914.00,A,A*62
$GPZDA,175914.00,30,07,2009,00,00*66
$GPRMC,175915.00,A,5033.82017,N,01210.24121,E,69.875,164.26,300709,,,A*50
$GPVTG,164.26,T,,M,69.875,N,129.479,K,A*0F
$GPGGA,175915.00,5033.82017,N,01210.24121,E,1,04,8.78,103.0,M,47.2,M,,*5D
$GPGSA,A,3,29,30,21,24,,,,,,,,,15.46,8.78,12.73*09
$GPGSV,3,1,11,29,65,067,36,30,28,131,26,31,44,235,25,21,51,175,27*79
$GPGSV,3,2,11,16,34,301,,10,20,061,34,23,06,314,24,13,05,348,*76
$GPGSV,3,3,11,24,61,096,34,12,02,126,,06,03,260,*45
$GPGLL,5033.82017,N,01210.24121,E,175915.00,A,A*68
$GPZDA,175915.00,30,07,2009,00,00*67
$GPRMC,175916.00,A,5033.80067,N,01210.25066,E,71.208,166.12,300709,,,A*59
$GPVTG,166.12,T,,M,71.208,N,131.949,K,A*04
$GPGGA,175916.00,5033.80067,N,01210.25066,E,1,04,8.79,103.0,M,47.2,M,,*59
$GPGSA,A,3,29,30,21,24,,,,,,,,,15.47,8.79,12.73*09
$GPGSV,3,1,11,29,65,067,36,30,28,131,23,31,44,235,21,21,51,175,26*79
$GPGSV,3,2,11,16,34,301,,10,20,061,28,23,06,314,19,13,05,348,*75
$GPGSV,3,3,11,24,61,096,30,12,02,126,,06,04,260,*46
$GPGLL,5033.80067,N,01210.25066,E,175916.00,A,A*6D
$GPZDA,175916.00,30,07,2009,00,00*64
$GPRMC,175917.00,A,5033.78155,N,01210.25822,E,71.119,167.90,300709,,,A*5F
$GPVTG,167.90,T,,M,71.119,N,131.783,K,A*04
$GPGGA,175917.00,5033.78155,N,01210.25822,E,1,04,8.79,103.1,M,47.2,M,,*56
$GPGSA,A,3,29,30,21,24,,,,,,,,,15.47,8.79,12.74*0E
$GPGSV,3,1,11,29,65,067,36,30,28,131,24,31,44,235,20,21,51,175,27*7E
$GPGSV,3,2,11,16,34,301,,10,20,061,24,23,06,314,15,13,05,348,*75
$GPGSV,3,3,11,24,61,096,26,12,02,126,,06,04,260,*41
$GPGLL,5033.78155,N,01210.25822,E,175917.00,A,A*63
$GPZDA,175917.00,30,07,2009,00,00*65
$GPRMC,175918.00,A,5033.76127,N,01210.26747,E,71.869,169.59,300709,,,A*51
$GPVTG,169.59,T,,M,71.869,N,133.174,K,A*0D
$GPGGA,175918.00,5033.76127,N,01210.26747,E,1,04,8.79,103.1,M,47.2,M,,*5D
$GPGSA,A,3,29,30,21,24,,,,,,,,,15.48,8.79,12.74*01
$GPGSV,3,1,11,29,65,067,37,30,28,131,20,31,44,235,24,21,51,175,26*7E
$GPGSV,3,2,11,16,34,301,,10,20,061,25,23,06,314,12,13,05,348,*73
$GPGSV,3,3,11,24,61,096,30,12,02,126,,06,04,260,*46
$GPGLL,5033.76127,N,01210.26747,E,175918.00,A,A*68
$GPZDA,175918.00,30,07,2009,00,00*6A
$GPRMC,175919.00,A,5033.74088,N,01210.27517,E,73.225,171.14,300709,,,A*50
$GPVTG,171.14,T,,M,73.225,N,135.686,K,A*01
$GPGGA,175919.00,5033.74088,N,01210.27517,E,1,04,8.80,103.1,M,47.2,M,,*5A
$GPGSA,A,3,29,30,21,24,,,,,,,,,15.49,8.80,12.75*07
$GPGSV,3,1,11,29,65,067,35,30,28,131,22,31,44,235,21,21,51,175,29*74
$GPGSV,3,2,11,16,34,301,,10,20,061,30,23,06,314,,13,05,348,*74
$GPGSV,3,3,11,24,61,096,31,12,02,126,,06,04,260,*47
$GPGLL,5033.74088,N,01210.27517,E,175919.00,A,A*69
$GPZDA,175919.00,30,07,2009,00,00*6B
$GPRMC,175920.00,A,5033.71930,N,01210.28636,E,73.183,172.16,300709,,,A*54
$GPVTG,172.16,T,,M,73.183,N,135.609,K,A*08
$GPGGA,175920.00,5033.71930,N,01210.28636,E,1,04,8.80,103.4,M,47.2,M,,*55
$GPGSA,A,3,29,30,21,24,,,,,,,,,15.49,8.80,12.75*07
$GPGSV,3,1,11,29,65,067,37,30,28,131,27,31,44,235,24,21,51,175,29*76
$GPGSV,3,2,11,16,34,301,,10,20,060,25,23,06,314,,13,05,348,*71
$GPGSV,3,3,11,24,61,096,35,12,02,126,,06,04,260,*43
$GPGLL,5033.71930,N,01210.28636,E,175920.00,A,A*63
$GPZDA,175920.00,30,07,2009,00,00*61
$GPRMC,175921.00,A,5033.69842,N,01210.29241,E,72.012,175.18,300709,,,A*5C
$GPVTG,175.18,T,,M,72.012,N,133.439,K,A*0E
$GPGGA,175921.00,5033.69842,N,01210.29241,E,1,04,8.81,103.6,M,47.2,M,,*5F
$GPGSA,A,3,29,30,21,24,,,,,,,,,15.50,8.81,12.75*0E
$GPGSV,3,1,11,29,65,067,38,30,28,131,26,31,44,235,18,21,51,175,30*7F
$GPGSV,3,2,11,16,34,301,,10,20,060,15,23,06,314,,13,05,348,*72
$GPGSV,3,3,11,24,61,096,36,12,02,126,,06,04,260,*40
$GPGLL,5033.69842,N,01210.29241,E,175921.00,A,A*6A
$GPZDA,175921.00,30,07,2009,00,00*60
$GPRMC,175922.00,A,5033.67689,N,01210.29930,E,72.325,177.26,300709,,,A*5D
$GPVTG,177.26,T,,M,72.325,N,134.018,K,A*06
$GPGGA,175922.00,5033.67689,N,01210.29930,E,1,04,8.81,103.7,M,47.2,M,,*57
$GPGSA,A,3,29,30,21,24,,,,,,,,,15.50,8.81,12.75*0E
$GPGSV,3,1,11,29,65,067,39,30,28,131,16,31,44,235,25,21,51,175,30*73
$GPGSV,3,2,11,16,34,301,,10,20,060,11,23,06,314,,13,05,348,*76
$GPGSV,3,3,11,24,61,096,34,12,02,126,,06,04,260,*42
$GPGLL,5033.67689,N,01210.29930,E,175922.00,A,A*63
$GPZDA,175922.00,30,07,2009,00,00*63
$GPRMC,175923.00,A,5033.65550,N,01210.30333,E,71.478,179.51,300709,,,A*5A
$GPVTG,179.51,T,,M,71.478,N,132.449,K,A*02
$GPGGA,175923.00,5033.65550,N,01210.30333,E,1,04,8.82,103.8,M,47.2,M,,*5E
$GPGSA,A,3,29,30,21,24,,,,,,,,,15.51,8.82,12.76*0F
$GPGSV,3,1,11,29,65,067,40,30,28,131,15,31,44,235,25,21,51,175,30*7E
$GPGSV,3,2,11,16,34,301,,10,20,060,,23,06,314,,13,05,348,*76
$GPGSV,3,3,11,24,61,096,34,12,02,126,,06,04,260,*42
$GPGLL,5033.65550,N,01210.30333,E,175923.00,A,A*66
$GPZDA,175923.00,30,07,2009,00,00*62
$GPRMC,175924.00,A,5033.63664,N,01210.30187,E,70.570,181.27,300709,,,A*5C
$GPVTG,181.27,T,,M,70.570,N,130.766,K,A*00
$GPGGA,175924.00,5033.63664,N,01210.30187,E,1,04,8.82,104.1,M,47.2,M,,*58
$GPGSA,A,3,29,30,21,24,,,,,,,,,15.52,8.82,12.76*0C
$GPGSV,3,1,11,29,65,067,39,30,28,131,31,31,44,235,25,21,51,175,30*76
$GPGSV,3,2,11,16,34,301,,10,20,060,,23,06,314,,13,05,348,*76
$GPGSV,3,3,11,24,61,096,35,12,02,126,,06,04,260,*43
$GPGLL,5033.63664,N,01210.30187,E,175924.00,A,A*6E
$GPZDA,175924.00,30,07,2009,00,00*65
$GPRMC,175925.00,A,5033.61751,N,01210.30123,E,70.125,181.19,300709,,,A*5F
$GPVTG,181.19,T,,M,70.125,N,129.941,K,A*0A
$GPGGA,175925.00,5033.61751,N,01210.30123,E,1,03,3.38,104.1,M,47.2,M,,*5F
$GPGSA,A,2,30,21,24,,,,,,,,,,3.52,3.38,1.00*08
$GPGSV,3,1,11,29,65,067,,30,28,131,24,31,44,235,19,21,51,175,24*72
$GPGSV,3,2,11,16,34,301,,10,20,060,,23,06,314,,13,05,348,*76
$GPGSV,3,3,11,24,61,096,30,12,02,126,,06,04,260,*46
$GPGLL,5033.61751,N,01210.30123,E,175925.00,A,A*64
$GPZDA,175925.00,30,07,2009,00,00*64
$GPRMC,175926.00,A,5033.59785,N,01210.29892,E,70.284,181.26,300709,,,A*51
$GPVTG,181.26,T,,M,70.284,N,130.236,K,A*0D
$GPGGA,175926.00,5033.59785,N,01210.29892,E,1,03,3.38,103.9,M,47.2,M,,*5A
$GPGSA,A,2,30,21,24,,,,,,,,,,3.52,3.38,1.00*08
$GPGSV,3,1,11,29,65,067,30,30,28,131,20,31,44,235,22,21,51,175,29*70
$GPGSV,3,2,11,16,34,301,,10,20,060,,23,06,314,,13,05,348,*76
$GPGSV,3,3,11,24,61,096,31,12,02,126,,06,04,260,*47
$GPGLL,5033.59785,N,01210.29892,E,175926.00,A,A*6E
$GPZDA,175926.00,30,07,2009,00,00*67
$GPRMC,175927.00,A,5033.57800,N,01210.29607,E,70.510,181.61,300709,,,A*57
$GPVTG,181.61,T,,M,70.510,N,130.654,K,A*04
$GPGGA,175927.00,5033.57800,N,01210.29607,E,1,03,3.38,103.4,M,47.2,M,,*58
$GPGSA,A,2,30,21,24,,,,,,,,,,3.53,3.38,1.00*09
$GPGSV,3,1,11,29,65,067,36,30,28,131,20,31,44,235,28,21,51,175,29*7C
$GPGSV,3,2,11,16,34,301,,10,20,060,,23,06,314,,13,05,348,*76
$GPGSV,3,3,11,24,61,096,32,12,02,126,,06,04,260,*44
$GPGLL,5033.57800,N,01210.29607,E,175927.00,A,A*61
$GPZDA,175927.00,30,07,2009,00,00*66
$GPRMC,175928.00,A,5033.55872,N,01210.30601,E,67.449,181.70,300709,,,A*5A
$GPVTG,181.70,T,,M,67.449,N,124.983,K,A*0F
$GPGGA,175928.00,5033.55872,N,01210.30601,E,1,03,3.38,103.5,M,47.2,M,,*5F
$GPGSA,A,2,30,21,24,,,,,,,,,,3.52,3.38,1.00*08
$GPGSV,3,1,11,29,65,067,38,30,28,131,23,31,44,235,16,21,51,175,25*70
$GPGSV,3,2,11,16,34,301,,10,20,060,,23,06,314,,13,05,348,*76
$GPGSV,3,3,11,24,61,096,37,12,02,126,,06,04,260,*41
$GPGLL,5033.55872,N,01210.30601,E,175928.00,A,A*67
$GPZDA,175928.00,30,07,2009,00,00*69
$GPRMC,175929.00,A,5033.54114,N,01210.29898,E,67.795,183.28,300709,,,A*58
$GPVTG,183.28,T,,M,67.795,N,125.625,K,A*00
$GPGGA,175929.00,5033.54114,N,01210.29898,E,1,03,3.38,103.6,M,47.2,M,,*53
$GPGSA,A,2,30,21,24,,,,,,,,,,3.52,3.38,1.00*08
$GPGSV,3,1,11,29,65,067,39,30,28,131,28,31,44,235,19,21,51,175,22*72
$GPGSV,3,2,11,16,34,301,,10,20,060,,23,06,314,,13,05,348,*76
$GPGSV,3,3,11,24,61,096,37,12,02,126,,06,04,260,*41
$GPGLL,5033.54114,N,01210.29898,E,175929.00,A,A*68
$GPZDA,175929.00,30,07,2009,00,00*68
$GPRMC,175930.00,A,5033.52500,N,01210.28855,E,67.737,185.10,300709,,,A*52
$GPVTG,185.10,T,,M,67.737,N,125.516,K,A*06
$GPGGA,175930.00,5033.52500,N,01210.28855,E,1,03,3.38,103.4,M,47.2,M,,*5E
$GPGSA,A,2,30,21,24,,,,,,,,,,3.52,3.38,1.00*08
$GPGSV,3,1,11,29,65,067,39,30,28,131,26,31,44,235,23,21,51,175,20*77
$GPGSV,3,2,11,16,34,301,,10,20,060,,23,06,314,,13,05,348,*76
$GPGSV,3,3,11,24,61,096,38,12,02,126,,06,04,260,*4E
$GPGLL,5033.52500,N,01210.28855,E,175930.00,A,A*67
$GPZDA,175930.00,30,07,2009,00,00*60
$GPRMC,175931.00,A,5033.50690,N,01210.27511,E,69.799,187.02,300709,,,A*52
$GPVTG,187.02,T,,M,69.799,N,129.337,K,A*04
$GPGGA,175931.00,5033.50690,N,01210.27511,E,1,03,3.38,103.1,M,47.2,M,,*50
$GPGSA,A,2,30,21,24,,,,,,,,,,3.52,3.38,1.00*08
$GPGSV,3,1,11,29,65,067,39,30,28,131,24,31,44,235,24,21,51,175,26*74
$GPGSV,3,2,11,16,34,301,,10,20,060,,23,06,314,,13,05,348,*76
$GPGSV,3,3,11,24,61,096,40,12,02,126,,06,04,260,*41
$GPGLL,5033.50690,N,01210.27511,E,175931.00,A,A*6C
$GPZDA,175931.00,30,07,2009,00,00*61
$GPRMC,175932.00,A,5033.48881,N,01210.25943,E,70.873,189.06,300709,,,A*56
$GPVTG,189.06,T,,M,70.873,N,131.327,K,A*05
$GPGGA,175932.00,5033.48881,N,01210.25943,E,1,03,3.38,102.7,M,47.2,M,,*5A
$GPGSA,A,2,30,21,24,,,,,,,,,,3.52,3.38,1.00*08
$GPGSV,3,1,11,29,65,067,39,30,28,131,24,31,44,235,26,21,51,175,29*79
$GPGSV,3,2,11,16,34,301,,10,20,060,,23,06,314,,13,05,348,*76
$GPGSV,3,3,11,24,61,096,41,12,02,126,,06,04,260,*40
$GPGLL,5033.48881,N,01210.25943,E,175932.00,A,A*61
$GPZDA,175932.00,30,07,2009,00,00*62
$GPRMC,175933.00,A,5033.47358,N,01210.23940,E,70.405,191.30,300709,,,A*53
$GPVTG,191.30,T,,M,70.405,N,130.461,K,A*00
$GPGGA,175933.00,5033.47358,N,01210.23940,E,1,03,3.38,102.5,M,47.2,M,,*5C
$GPGSA,A,2,30,21,24,,,,,,,,,,3.52,3.38,1.00*08
$GPGSV,3,1,11,29,65,067,40,30,28,131,27,31,44,235,23,21,51,175,29*71
$GPGSV,3,2,11,16,34,301,,10,20,060,15,23,06,313,,13,05,348,*75
$GPGSV,3,3,11,24,61,096,41,12,02,126,,06,04,260,*40
$GPGLL,5033.47358,N,01210.23940,E,175933.00,A,A*65
$GPZDA,175933.00,30,07,2009,00,00*63
$GPRMC,175934.00,A,5033.45861,N,01210.21859,E,70.529,193.67,300709,,,A*53
$GPVTG,193.67,T,,M,70.529,N,130.690,K,A*03
$GPGGA,175934.00,5033.45861,N,01210.21859,E,1,03,3.38,102.2,M,47.2,M,,*54
$GPGSA,A,2,30,21,24,,,,,,,,,,3.52,3.38,1.00*08
$GPGSV,3,1,11,29,65,067,37,30,28,131,27,31,44,235,22,21,51,175,28*71
$GPGSV,3,2,11,16,34,301,,10,20,060,15,23,06,313,,13,05,348,*75
$GPGSV,3,3,11,24,61,095,41,12,02,126,,06,04,260,*43
$GPGLL,5033.45861,N,01210.21859,E,175934.00,A,A*6A
$GPZDA,175934.00,30,07,2009,00,00*64
$GPRMC,175935.00,A,5033.42987,N,01210.22230,E,69.039,195.66,300709,,,A*51
$GPVTG,195.66,T,,M,69.039,N,127.929,K,A*03
$GPGGA,175935.00,5033.42987,N,01210.22230,E,1,04,8.88,102.6,M,47.2,M,,*5E
$GPGSA,A,3,29,30,21,24,,,,,,,,,15.59,8.88,12.81*05
$GPGSV,3,1,11,29,65,067,36,30,28,131,30,31,44,235,23,21,51,175,25*7A
$GPGSV,3,2,11,16,34,301,,10,20,060,21,23,06,313,,13,05,348,*72
$GPGSV,3,3,11,24,61,095,40,12,02,126,,06,04,260,*42
$GPGLL,5033.42987,N,01210.22230,E,175935.00,A,A*63
$GPZDA,175935.00,30,07,2009,00,00*65
$GPRMC,175936.00,A,5033.40985,N,01210.21181,E,67.419,197.68,300709,,,A*5C
$GPVTG,197.68,T,,M,67.419,N,124.928,K,A*05
$GPGGA,175936.00,5033.40985,N,01210.21181,E,1,04,8.88,102.9,M,47.2,M,,*58
$GPGSA,A,3,29,30,21,24,,,,,,,,,15.58,8.88,12.80*05
$GPGSV,3,1,11,29,65,067,37,30,28,131,27,31,44,235,23,21,51,175,29*71
$GPGSV,3,2,11,16,34,301,,10,20,060,18,23,06,313,,13,05,348,*78
$GPGSV,3,3,11,24,61,095,37,12,02,126,,06,04,260,*42
$GPGLL,5033.40985,N,01210.21181,E,175936.00,A,A*6A
$GPZDA,175936.00,30,07,2009,00,00*66
$GPRMC,175937.00,A,5033.39298,N,01210.19619,E,67.829,199.75,300709,,,A*54
$GPVTG,199.75,T,,M,67.829,N,125.686,K,A*02
$GPGGA,175937.00,5033.39298,N,01210.19619,E,1,04,8.88,103.2,M,47.2,M,,*57
$GPGSA,A,3,29,30,21,24,,,,,,,,,15.59,8.88,12.81*05
$GPGSV,3,1,11,29,65,067,36,30,28,131,30,31,44,235,24,21,51,175,26*7E
$GPGSV,3,2,11,16,34,301,,10,20,060,19,23,06,313,,13,05,348,*79
$GPGSV,3,3,11,24,61,095,39,12,02,126,,06,04,260,*4C
$GPGLL,5033.39298,N,01210.19619,E,175937.00,A,A*6F
$GPZDA,175937.00,30,07,2009,00,00*67
$GPRMC,175938.00,A,5033.37684,N,01210.18025,E,67.479,201.73,300709,,,A*59
$GPVTG,201.73,T,,M,67.479,N,125.039,K,A*0D
$GPGGA,175938.00,5033.37684,N,01210.18025,E,1,04,8.89,103.5,M,47.2,M,,*51
$GPGSA,A,3,29,30,21,24,,,,,,,,,15.59,8.89,12.81*04
$GPGSV,3,1,11,29,65,067,35,30,28,131,34,31,44,235,23,21,51,175,25*7D
$GPGSV,3,2,11,16,34,301,,10,20,060,23,23,06,313,,13,05,348,*70
$GPGSV,3,3,11,24,61,095,39,12,02,126,,06,04,260,*4C
$GPGLL,5033.37684,N,01210.18025,E,175938.00,A,A*6F
$GPZDA,175938.00,30,07,2009,00,00*68
$GPRMC,175939.00,A,5033.36541,N,01210.15769,E,66.934,203.50,300709,,,A*57
$GPVTG,203.50,T,,M,66.934,N,124.029,K,A*0B
$GPGGA,175939.00,5033.36541,N,01210.15769,E,1,04,8.90,104.6,M,47.2,M,,*55
$GPGSA,A,3,29,30,21,24,,,,,,,,,15.61,8.90,12.82*04
$GPGSV,3,1,12,29,65,067,35,23,06,313,,30,28,131,36,31,44,235,26*7C
$GPGSV,3,2,12,21,51,175,25,16,34,301,,10,20,060,25,23,06,313,*7E
$GPGSV,3,3,12,13,05,348,,24,61,095,39,12,02,126,,06,04,260,*77
$GPGLL,5033.36541,N,01210.15769,E,175939.00,A,A*67
$GPZDA,175939.00,30,07,2009,00,00*69
$GPRMC,175940.00,A,5033.35042,N,01210.14049,E,66.528,205.15,300709,,,A*5E
$GPVTG,205.15,T,,M,66.528,N,123.276,K,A*02
$GPGGA,175940.00,5033.35042,N,01210.14049,E,1,04,8.91,105.1,M,47.2,M,,*5D
$GPGSA,A,3,29,30,21,24,,,,,,,,,15.62,8.91,12.83*07
$GPGSV,3,1,12,29,65,067,35,23,06,313,,30,28,131,32,31,44,235,18*75
$GPGSV,3,2,12,21,51,175,24,16,34,301,,10,20,060,25,23,06,313,*7F
$GPGSV,3,3,12,13,05,348,,24,61,095,39,12,02,126,,06,04,260,*77
$GPGLL,5033.35042,N,01210.14049,E,175940.00,A,A*68
$GPZDA,175940.00,30,07,2009,00,00*67
$GPRMC,175941.00,A,5033.33432,N,01210.12541,E,66.838,206.55,300709,,,A*5A
$GPVTG,206.55,T,,M,66.838,N,123.851,K,A*06
$GPGGA,175941.00,5033.33432,N,01210.12541,E,1,03,7.75,105.3,M,47.2,M,,*52
$GPGSA,A,2,29,21,24,,,,,,,,,,7.81,7.75,1.00*07
$GPGSV,3,1,12,29,65,067,33,23,06,313,,30,28,131,21,31,44,235,20*7A
$GPGSV,3,2,12,21,51,175,22,16,34,301,,10,20,060,22,23,06,313,*7E
$GPGSV,3,3,12,13,05,348,,24,61,095,38,12,02,126,,06,04,260,*76
$GPGLL,5033.33432,N,01210.12541,E,175941.00,A,A*67
$GPZDA,175941.00,30,07,2009,00,00*66
$GPRMC,175942.00,A,5033.31908,N,01210.10857,E,66.896,207.69,300709,,,A*5D
$GPVTG,207.69,T,,M,66.896,N,123.958,K,A*04
$GPGGA,175942.00,5033.31908,N,01210.10857,E,1,03,7.75,105.1,M,47.2,M,,*5D
$GPGSA,A,2,29,21,24,,,,,,,,,,7.81,7.75,1.00*07
$GPGSV,3,1,12,29,65,067,31,23,06,313,,30,28,131,,31,44,235,25*7E
$GPGSV,3,2,12,21,51,175,18,16,34,301,,10,20,060,13,23,06,313,*75
$GPGSV,3,3,12,13,05,348,,24,61,095,39,12,02,126,,06,04,260,*77
$GPGLL,5033.31908,N,01210.10857,E,175942.00,A,A*6A
$GPZDA,175942.00,30,07,2009,00,00*65
$GPRMC,175943.00,A,5033.30272,N,01210.09385,E,68.385,208.60,300709,,,A*56
$GPVTG,208.60,T,,M,68.385,N,126.717,K,A*05
$GPGGA,175943.00,5033.30272,N,01210.09385,E,1,03,7.75,104.7,M,47.2,M,,*50
$GPGSA,A,2,29,21,24,,,,,,,,,,7.81,7.75,1.00*07
$GPGSV,3,1,12,29,65,067,34,23,06,313,,30,28,131,,31,44,235,27*79
$GPGSV,3,2,12,21,51,175,20,16,34,301,,10,20,060,11,23,06,313,*7C
$GPGSV,3,3,12,13,05,348,,24,61,095,40,12,02,126,,06,04,260,*79
$GPGLL,5033.30272,N,01210.09385,E,175943.00,A,A*60
$GPZDA,175943.00,30,07,2009,00,00*64
$GPRMC,175944.00,A,5033.28660,N,01210.07785,E,66.823,209.49,300709,,,A*56
$GPVTG,209.49,T,,M,66.823,N,123.822,K,A*0A
$GPGGA,175944.00,5033.28660,N,01210.07785,E,1,03,7.77,104.4,M,47.2,M,,*52
$GPGSA,A,2,29,21,24,,,,,,,,,,7.84,7.77,1.00*00
$GPGSV,3,1,12,29,65,067,33,23,06,313,,30,28,131,32,31,44,235,30*79
$GPGSV,3,2,12,21,51,175,19,16,34,301,,10,20,060,,23,06,313,*76
$GPGSV,3,3,12,13,05,348,,24,61,095,39,12,02,126,,06,04,260,*77
$GPGLL,5033.28660,N,01210.07785,E,175944.00,A,A*63
$GPZDA,175944.00,30,07,2009,00,00*63
$GPRMC,175945.00,A,5033.27034,N,01210.06100,E,66.741,210.32,300709,,,A*5A
$GPVTG,210.32,T,,M,66.741,N,123.671,K,A*0D
$GPGGA,175945.00,5033.27034,N,01210.06100,E,1,03,7.76,104.0,M,47.2,M,,*54
$GPGSA,A,2,29,21,24,,,,,,,,,,7.83,7.76,1.00*06
$GPGSV,3,1,12,29,65,067,34,23,06,313,,30,28,131,35,31,44,235,30*79
$GPGSV,3,2,12,21,51,175,22,16,34,301,,10,20,060,,23,06,313,*7E
$GPGSV,3,3,12,13,05,348,,24,61,095,40,12,02,126,,06,04,260,*79
$GPGLL,5033.27034,N,01210.06100,E,175945.00,A,A*60
$GPZDA,175945.00,30,07,2009,00,00*62
$GPRMC,175946.00,A,5033.25423,N,01210.04369,E,66.517,211.07,300709,,,A*50
$GPVTG,211.07,T,,M,66.517,N,123.256,K,A*0A
$GPGGA,175946.00,5033.25423,N,01210.04369,E,1,03,7.78,103.7,M,47.2,M,,*56
$GPGSA,A,2,29,21,24,,,,,,,,,,7.84,7.78,1.00*0F
$GPGSV,3,1,12,29,65,067,34,23,06,313,,30,28,131,35,31,44,235,30*79
$GPGSV,3,2,12,21,51,175,23,16,34,301,,10,20,060,,23,06,313,*7F
$GPGSV,3,3,12,13,05,348,,24,61,095,40,12,02,126,,06,04,260,*79
$GPGLL,5033.25423,N,01210.04369,E,175946.00,A,A*6C
$GPZDA,175946.00,30,07,2009,00,00*61
$GPRMC,175947.00,A,5033.23824,N,01210.02615,E,66.896,211.73,300709,,,A*53
$GPVTG,211.73,T,,M,66.896,N,123.959,K,A*09
$GPGGA,175947.00,5033.23824,N,01210.02615,E,1,03,7.77,103.4,M,47.2,M,,*5E
$GPGSA,A,2,29,21,24,,,,,,,,,,7.83,7.77,1.00*07
$GPGSV,3,1,12,29,65,067,31,23,06,313,,30,28,131,33,31,44,235,28*73
$GPGSV,3,2,12,21,51,175,22,16,34,301,,10,20,060,23,23,06,313,*7F
$GPGSV,3,3,12,13,05,348,,24,61,095,36,12,02,126,,06,04,260,*78
$GPGLL,5033.23824,N,01210.02615,E,175947.00,A,A*68
$GPZDA,175947.00,30,07,2009,00,00*60
$GPRMC,175948.00,A,5033.22243,N,01210.00755,E,67.711,212.28,300709,,,A*5D
$GPVTG,212.28,T,,M,67.711,N,125.468,K,A*0C
$GPGGA,175948.00,5033.22243,N,01210.00755,E,1,03,7.78,103.2,M,47.2,M,,*55
$GPGSA,A,2,29,21,24,,,,,,,,,,7.85,7.78,1.00*0E
$GPGSV,3,1,12,29,65,067,32,23,06,313,,30,28,131,36,31,44,235,27*7A
$GPGSV,3,2,12,21,51,175,23,16,34,301,,10,20,060,22,23,06,313,*7F
$GPGSV,3,3,12,13,05,348,,24,61,095,40,12,02,126,,06,04,260,*79
$GPGLL,5033.22243,N,01210.00755,E,175948.00,A,A*6A
$GPZDA,175948.00,30,07,2009,00,00*6F
$GPRMC,175949.00,A,5033.20537,N,01209.98869,E,69.675,212.66,300709,,,A*54
$GPVTG,212.66,T,,M,69.675,N,129.107,K,A*0B
$GPGGA,175949.00,5033.20537,N,01209.98869,E,1,03,7.78,102.9,M,47.2,M,,*51
$GPGSA,A,2,29,21,24,,,,,,,,,,7.85,7.78,1.00*0E
$GPGSV,3,1,12,29,65,067,34,23,06,313,,30,28,131,37,31,44,235,30*7B
$GPGSV,3,2,12,21,51,175,26,16,34,301,,10,20,060,22,23,06,313,*7A
$GPGSV,3,3,12,13,05,348,,24,61,095,40,12,02,126,,06,04,260,*79
$GPGLL,5033.20537,N,01209.98869,E,175949.00,A,A*64
$GPZDA,175949.00,30,07,2009,00,00*6E
$GPRMC,175950.00,A,5033.18933,N,01209.97000,E,67.689,213.17,300709,,,A*5D
$GPVTG,213.17,T,,M,67.689,N,125.427,K,A*0A
$GPGGA,175950.00,5033.18933,N,01209.97000,E,1,03,7.79,102.6,M,47.2,M,,*5C
$GPGSA,A,2,29,21,24,,,,,,,,,,7.85,7.79,1.00*0F
$GPGSV,3,1,12,29,65,067,34,23,06,313,,30,28,131,37,31,44,235,30*7B
$GPGSV,3,2,12,21,51,175,26,16,34,301,,10,20,060,22,23,06,313,*7A
$GPGSV,3,3,12,13,05,348,,24,61,095,40,12,02,126,,06,04,260,*79
$GPGLL,5033.18933,N,01209.97000,E,175950.00,A,A*67
$GPZDA,175950.00,30,07,2009,00,00*66
$GPRMC,175951.00,A,5033.17354,N,01209.95261,E,67.810,213.65,300709,,,A*54
$GPVTG,213.65,T,,M,67.810,N,125.651,K,A*02
$GPGGA,175951.00,5033.17354,N,01209.95261,E,1,03,7.80,102.4,M,47.2,M,,*5A
$GPGSA,A,2,29,21,24,,,,,,,,,,7.87,7.80,1.00*0B
$GPGSV,3,1,12,29,65,067,34,23,06,313,,30,28,131,36,31,44,235,30*7A
$GPGSV,3,2,12,21,51,175,25,16,34,301,,10,20,060,22,23,06,313,*79
$GPGSV,3,3,12,13,05,348,,24,61,095,40,12,02,126,,06,04,260,*79
$GPGLL,5033.17354,N,01209.95261,E,175951.00,A,A*65
$GPZDA,175951.00,30,07,2009,00,00*67
$GPRMC,175952.00,A,5033.15780,N,01209.93446,E,68.072,214.18,300709,,,A*53
$GPVTG,214.18,T,,M,68.072,N,126.138,K,A*07
$GPGGA,175952.00,5033.15780,N,01209.93446,E,1,03,7.80,102.2,M,47.2,M,,*55
$GPGSA,A,2,29,21,24,,,,,,,,,,7.86,7.80,1.00*0A
$GPGSV,3,1,12,29,65,067,35,23,06,313,,30,28,131,34,31,44,235,26*7E
$GPGSV,3,2,12,21,51,175,24,16,34,301,,10,20,060,22,23,06,313,*78
$GPGSV,3,3,12,13,05,348,,24,61,095,40,12,02,126,,06,04,260,*79
$GPGLL,5033.15780,N,01209.93446,E,175952.00,A,A*6C
$GPZDA,175952.00,30,07,2009,00,00*64
$GPRMC,175953.00,A,5033.14232,N,01209.91679,E,68.606,214.59,300709,,,A*53
$GPVTG,214.59,T,,M,68.606,N,127.128,K,A*07
$GPGGA,175953.00,5033.14232,N,01209.91679,E,1,03,7.81,101.9,M,47.2,M,,*5C
$GPGSA,A,2,29,21,24,,,,,,,,,,7.88,7.81,1.00*05
$GPGSV,3,1,12,29,65,067,35,23,06,313,,30,28,131,30,31,44,235,24*78
$GPGSV,3,2,12,21,51,175,24,16,34,301,,10,20,060,22,23,06,313,*78
$GPGSV,3,3,12,13,05,348,,24,61,095,40,12,02,126,,06,04,260,*79
$GPGLL,5033.14232,N,01209.91679,E,175953.00,A,A*6C
$GPZDA,175953.00,30,07,2009,00,00*65
$GPRMC,175954.00,A,5033.12660,N,01209.89862,E,69.063,214.97,300709,,,A*5A
$GPVTG,214.97,T,,M,69.063,N,127.975,K,A*01
$GPGGA,175954.00,5033.12660,N,01209.89862,E,1,03,7.81,101.7,M,47.2,M,,*5D
$GPGSA,A,2,29,21,24,,,,,,,,,,7.87,7.81,1.00*0A
$GPGSV,3,1,12,29,65,067,35,23,06,313,,30,28,131,29,31,44,235,24*70
$GPGSV,3,2,12,21,51,175,23,16,34,301,,10,20,060,22,23,06,313,*7F
$GPGSV,3,3,12,13,05,348,,24,61,095,39,12,02,126,,06,04,260,*77
$GPGLL,5033.12660,N,01209.89862,E,175954.00,A,A*63
$GPZDA,175954.00,30,07,2009,00,00*62
$GPRMC,175955.00,A,5033.11102,N,01209.88115,E,69.348,215.31,300709,,,A*54
$GPVTG,215.31,T,,M,69.348,N,128.502,K,A*05
$GPGGA,175955.00,5033.11102,N,01209.88115,E,1,03,7.82,101.5,M,47.2,M,,*55
$GPGSA,A,2,29,21,24,,,,,,,,,,7.88,7.82,1.00*06
$GPGSV,3,1,12,29,65,067,35,23,06,313,,30,28,131,28,31,44,235,24*71
$GPGSV,3,2,12,21,51,175,23,16,34,301,,10,20,060,20,23,06,313,*7D
$GPGSV,3,3,12,13,05,348,,24,61,095,39,12,02,126,,06,04,260,*77
$GPGLL,5033.11102,N,01209.88115,E,175955.00,A,A*6A
$GPZDA,175955.00,30,07,2009,00,00*63
$GPRMC,175956.00,A,5033.09557,N,01209.86376,E,69.273,215.60,300709,,,A*5E
$GPVTG,215.60,T,,M,69.273,N,128.363,K,A*09
$GPGGA,175956.00,5033.09557,N,01209.86376,E,1,03,7.82,101.3,M,47.2,M,,*54
$GPGSA,A,2,29,21,24,,,,,,,,,,7.89,7.82,1.00*07
$GPGSV,3,1,12,29,65,067,35,23,06,313,,30,28,131,30,31,44,235,24*78
$GPGSV,3,2,12,21,51,175,23,16,34,301,,10,20,060,16,23,06,313,*78
$GPGSV,3,3,12,13,05,348,,24,61,095,40,12,02,126,,06,04,260,*79
$GPGLL,5033.09557,N,01209.86376,E,175956.00,A,A*6D
$GPZDA,175956.00,30,07,2009,00,00*60
$GPRMC,175957.00,A,5033.08005,N,01209.84603,E,69.352,215.84,300709,,,A*51
$GPVTG,215.84,T,,M,69.352,N,128.510,K,A*03
$GPGGA,175957.00,5033.08005,N,01209.84603,E,1,03,7.84,101.1,M,47.2,M,,*57
$GPGSA,A,2,29,21,24,,,,,,,,,,7.90,7.84,1.00*09
$GPGSV,3,1,12,29,65,067,35,23,06,313,,30,28,131,34,31,44,235,25*7D
$GPGSV,3,2,12,21,51,175,24,16,34,301,,10,20,060,17,23,06,313,*7E
$GPGSV,3,3,12,13,05,348,,24,61,095,40,12,02,126,,06,04,260,*79
$GPGLL,5033.08005,N,01209.84603,E,175957.00,A,A*6A
$GPZDA,175957.00,30,07,2009,00,00*61
$GPRMC,175958.00,A,5033.06422,N,01209.82753,E,70.289,216.01,300709,,,A*52
$GPVTG,216.01,T,,M,70.289,N,130.246,K,A*0F
$GPGGA,175958.00,5033.06422,N,01209.82753,E,1,03,7.84,100.9,M,47.2,M,,*5C
$GPGSA,A,2,29,21,24,,,,,,,,,,7.90,7.84,1.00*09
$GPGSV,3,1,12,29,65,067,35,23,06,313,,30,28,131,34,31,44,235,25*7D
$GPGSV,3,2,12,21,51,175,24,16,34,301,,10,20,060,18,23,06,313,*71
$GPGSV,3,3,12,13,05,348,,24,61,095,39,12,02,126,,06,04,260,*77
$GPGLL,5033.06422,N,01209.82753,E,175958.00,A,A*68
$GPZDA,175958.00,30,07,2009,00,00*6E
$GPRMC,175959.00,A,5033.04847,N,01209.80934,E,69.224,216.18,300709,,,A*54
$GPVTG,216.18,T,,M,69.224,N,128.272,K,A*06
$GPGGA,175959.00,5033.04847,N,01209.80934,E,1,03,7.84,100.8,M,47.2,M,,*5C
$GPGSA,A,2,29,21,24,,,,,,,,,,7.90,7.84,1.00*09
$GPGSV,3,1,12,29,65,067,35,23,06,313,,30,28,131,34,31,44,235,25*7D
$GPGSV,3,2,12,21,51,175,23,16,34,301,,10,20,060,22,23,06,313,*7F
$GPGSV,3,3,12,13,05,348,,24,61,095,40,12,02,126,,06,04,260,*79
$GPGLL,5033.04847,N,01209.80934,E,175959.00,A,A*69
$GPZDA,175959.00,30,07,2009,00,00*6F
$GPRMC,180000.00,A,5033.03237,N,01209.79004,E,70.041,216.24,300709,,,A*5B
$GPVTG,216.24,T,,M,70.041,N,129.787,K,A*0E
$GPGGA,180000.00,5033.03237,N,01209.79004,E,1,03,7.84,100.6,M,47.2,M,,*5B
$GPGSA,A,2,29,21,24,,,,,,,,,,7.91,7.84,1.00*08
$GPGSV,3,1,12,29,65,067,33,23,06,313,,30,28,131,35,31,44,235,25*7A
$GPGSV,3,2,12,21,51,175,15,16,34,301,,10,20,060,21,23,06,313,*79
$GPGSV,3,3,12,13,05,348,,24,61,095,40,12,02,126,,06,04,260,*79
$GPGLL,5033.03237,N,01209.79004,E,180000.00,A,A*60
$GPZDA,180000.00,30,07,2009,00,00*60
$GPRMC,180001.00,A,5033.01663,N,01209.77223,E,68.878,216.13,300709,,,A*5B
$GPVTG,216.13,T,,M,68.878,N,127.631,K,A*03
$GPGGA,180001.00,5033.01663,N,01209.77223,E,1,03,7.85,100.5,M,47.2,M,,*56
$GPGSA,A,2,29,21,24,,,,,,,,,,7.91,7.85,1.00*09
$GPGSV,3,1,12,29,65,067,29,23,06,313,,30,28,131,35,31,44,235,25*71
$GPGSV,3,2,12,21,51,175,19,16,34,301,,10,20,060,18,23,06,313,*7F
$GPGSV,3,3,12,13,05,348,,24,61,095,38,12,02,126,,06,04,260,*76
$GPGLL,5033.01663,N,01209.77223,E,180001.00,A,A*6F
$GPZDA,180001.00,30,07,2009,00,00*61
$GPRMC,180002.00,A,5032.99944,N,01209.75214,E,68.682,215.71,300709,,,A*58
$GPVTG,215.71,T,,M,68.682,N,127.268,K,A*07
$GPGGA,180002.00,5032.99944,N,01209.75214,E,1,03,7.85,100.4,M,47.2,M,,*58
$GPGSA,A,2,29,21,24,,,,,,,,,,7.92,7.85,1.00*0A
$GPGSV,3,1,12,29,65,067,29,23,06,313,,30,28,131,29,31,44,235,22*7B
$GPGSV,3,2,12,21,51,175,27,16,34,301,,10,20,060,23,23,06,313,*7A
$GPGSV,3,3,12,13,05,348,,24,61,095,38,12,02,126,,06,04,260,*76
$GPGLL,5032.99944,N,01209.75214,E,180002.00,A,A*60
$GPZDA,180002.00,30,07,2009,00,00*62
$GPRMC,180003.00,A,5032.98253,N,01209.73553,E,67.113,214.94,300709,,,A*5D
$GPVTG,214.94,T,,M,67.113,N,124.360,K,A*07
$GPGGA,180003.00,5032.98253,N,01209.73553,E,1,03,7.85,100.3,M,47.2,M,,*50
$GPGSA,A,2,29,21,24,,,,,,,,,,7.91,7.85,1.00*09
$GPGSV,3,1,12,29,65,067,28,23,06,313,,30,28,131,24,31,44,235,20*75
$GPGSV,3,2,12,21,51,175,32,16,34,301,,10,20,060,19,23,06,313,*77
$GPGSV,3,3,12,13,05,348,,24,61,095,39,12,02,126,,06,04,260,*77
$GPGLL,5032.98253,N,01209.73553,E,180003.00,A,A*6F
$GPZDA,180003.00,30,07,2009,00,00*63
$GPRMC,180004.00,A,5032.96564,N,01209.72066,E,67.113,214.27,300709,,,A*5D
$GPVTG,214.27,T,,M,67.113,N,124.360,K,A*0F
$GPGGA,180004.00,5032.96564,N,01209.72066,E,1,03,7.87,100.3,M,47.2,M,,*5A
$GPGSA,A,2,29,21,24,,,,,,,,,,7.94,7.87,1.00*0E
$GPGSV,3,1,12,29,65,067,29,23,06,313,,30,28,131,23,31,44,235,20*73
$GPGSV,3,2,12,21,51,175,30,16,34,301,,10,20,060,19,23,06,313,*75
$GPGSV,3,3,12,13,05,348,,24,61,095,38,12,02,126,,06,04,260,*76
$GPGLL,5032.96564,N,01209.72066,E,180004.00,A,A*67
$GPZDA,180004.00,30,07,2009,00,00*64
$GPRMC,180005.00,A,5032.94661,N,01209.70893,E,67.393,212.78,300709,,,A*5E
$GPVTG,212.78,T,,M,67.393,N,124.879,K,A*0A
$GPGGA,180005.00,5032.94661,N,01209.70893,E,1,03,7.87,100.3,M,47.2,M,,*5F
$GPGSA,A,2,29,21,24,,,,,,,,,,7.93,7.87,1.00*09
$GPGSV,3,1,12,29,65,067,32,23,06,313,,30,28,131,24,31,44,235,28*76
$GPGSV,3,2,12,21,51,175,28,16,34,301,,10,20,060,18,23,06,313,*7D
$GPGSV,3,3,12,13,05,348,,24,61,095,37,12,02,126,,06,04,260,*79
$GPGLL,5032.94661,N,01209.70893,E,180005.00,A,A*62
$GPZDA,180005.00,30,07,2009,00,00*65
$GPRMC,180006.00,A,5032.92742,N,01209.69852,E,68.415,211.03,300709,,,A*57
$GPVTG,211.03,T,,M,68.415,N,126.772,K,A*05
$GPGGA,180006.00,5032.92742,N,01209.69852,E,1,03,7.88,100.3,M,47.2,M,,*50
$GPGSA,A,2,29,21,24,,,,,,,,,,7.94,7.88,1.00*01
$GPGSV,3,1,12,29,65,067,31,23,06,313,,30,28,131,27,31,44,235,26*78
$GPGSV,3,2,12,21,51,175,28,16,34,301,,10,20,060,15,23,06,313,*70
$GPGSV,3,3,12,13,05,348,,24,61,095,35,12,02,126,,06,04,260,*7B
$GPGLL,5032.92742,N,01209.69852,E,180006.00,A,A*62
$GPZDA,180006.00,30,07,2009,00,00*66
$GPRMC,180007.00,A,5032.90826,N,01209.68988,E,68.623,209.06,300709,,,A*55
$GPVTG,209.06,T,,M,68.623,N,127.158,K,A*01
$GPGGA,180007.00,5032.90826,N,01209.68988,E,1,03,7.87,100.3,M,47.2,M,,*56
$GPGSA,A,2,29,21,24,,,,,,,,,,7.94,7.87,1.00*0E
$GPGSV,3,1,12,29,65,067,31,23,06,313,,30,28,131,30,31,44,235,22*7A
$GPGSV,3,2,12,21,51,175,27,16,34,301,,10,20,060,15,23,06,313,*7F
$GPGSV,3,3,12,13,05,348,,24,61,095,35,12,02,126,,06,04,260,*7B
$GPGLL,5032.90826,N,01209.68988,E,180007.00,A,A*6B
$GPZDA,180007.00,30,07,2009,00,00*67
$GPRMC,180008.00,A,5032.88925,N,01209.68281,E,68.254,206.92,300709,,,A*55
$GPVTG,206.92,T,,M,68.254,N,126.474,K,A*0D
$GPGGA,180008.00,5032.88925,N,01209.68281,E,1,03,7.89,100.3,M,47.2,M,,*5E
$GPGSA,A,2,29,21,24,,,,,,,,,,7.96,7.89,1.00*02
$GPGSV,3,1,12,29,65,067,31,23,06,313,,30,28,131,27,31,44,235,20*7E
$GPGSV,3,2,12,21,51,175,28,16,34,301,,10,20,060,26,23,06,313,*70
$GPGSV,3,3,12,13,05,348,,24,61,095,34,12,02,126,,06,04,260,*7A
$GPGLL,5032.88925,N,01209.68281,E,180008.00,A,A*6D
$GPZDA,180008.00,30,07,2009,00,00*68
$GPRMC,180009.00,A,5032.86990,N,01209.67818,E,68.718,204.56,300709,,,A*56
$GPVTG,204.56,T,,M,68.718,N,127.335,K,A*09
$GPGGA,180009.00,5032.86990,N,01209.67818,E,1,03,7.89,100.3,M,47.2,M,,*5A
$GPGSA,A,2,29,21,24,,,,,,,,,,7.95,7.89,1.00*01
$GPGSV,3,1,12,29,65,067,34,23,06,313,,30,28,131,26,31,44,235,24*7E
$GPGSV,3,2,12,21,51,175,27,16,34,301,,10,20,060,28,23,06,313,*71
$GPGSV,3,3,12,13,05,348,,24,61,095,34,12,02,126,,06,04,260,*7A
$GPGLL,5032.86990,N,01209.67818,E,180009.00,A,A*69
$GPZDA,180009.00,30,07,2009,00,00*69
$GPRMC,180010.00,A,5032.85383,N,01209.66883,E,67.538,202.45,300709,,,A*5D
$GPVTG,202.45,T,,M,67.538,N,125.148,K,A*08
$GPGGA,180010.00,5032.85383,N,01209.66883,E,1,03,7.89,100.2,M,47.2,M,,*5B
$GPGSA,A,2,29,21,24,,,,,,,,,,7.95,7.89,1.00*01
$GPGSV,3,1,12,29,65,067,36,23,06,313,,30,28,131,25,31,44,235,16*7E
$GPGSV,3,2,12,21,51,175,27,16,34,301,,10,20,060,24,23,06,313,*7D
$GPGSV,3,3,12,13,05,348,,24,61,095,29,12,02,126,,06,04,260,*76
$GPGLL,5032.85383,N,01209.66883,E,180010.00,A,A*69
$GPZDA,180010.00,30,07,2009,00,00*61
$GPRMC,180011.00,A,5032.83585,N,01209.66289,E,68.356,200.01,300709,,,A*59
$GPVTG,200.01,T,,M,68.356,N,126.663,K,A*06
$GPGGA,180011.00,5032.83585,N,01209.66289,E,1,03,7.90,100.1,M,47.2,M,,*57
$GPGSA,A,2,29,21,24,,,,,,,,,,7.96,7.90,1.00*0A
$GPGSV,3,1,12,29,65,067,34,23,06,313,,30,28,131,23,31,44,235,20*7F
$GPGSV,3,2,12,21,51,175,27,16,34,301,,10,20,060,32,23,06,313,*7A
$GPGSV,3,3,12,13,05,348,,24,61,095,27,12,02,126,,06,04,260,*78
$GPGLL,5032.83585,N,01209.66289,E,180011.00,A,A*6E
$GPZDA,180011.00,30,07,2009,00,00*60
$GPRMC,180012.00,A,5032.81682,N,01209.66293,E,67.454,197.43,300709,,,A*56
$GPVTG,197.43,T,,M,67.454,N,124.992,K,A*04
$GPGGA,180012.00,5032.81682,N,01209.66293,E,1,03,7.90,100.0,M,47.2,M,,*58
$GPGSA,A,2,29,21,24,,,,,,,,,,7.96,7.90,1.00*0A
$GPGSV,3,1,12,29,65,067,35,23,06,313,,30,28,131,27,31,44,235,29*73
$GPGSV,3,2,12,21,51,175,22,16,34,301,,10,20,060,31,23,06,313,*7C
$GPGSV,3,3,12,13,05,348,,24,61,095,31,12,02,126,,06,04,260,*7F
$GPGLL,5032.81682,N,01209.66293,E,180012.00,A,A*60
$GPZDA,180012.00,30,07,2009,00,00*63
$GPRMC,180013.00,A,5032.79804,N,01209.66330,E,67.356,177.15,300709,,,A*50
$GPVTG,177.15,T,,M,67.356,N,124.810,K,A*07
$GPGGA,180013.00,5032.79804,N,01209.66330,E,1,03,7.91,99.9,M,47.2,M,,*6F
$GPGSA,A,2,29,21,24,,,,,,,,,,7.97,7.91,1.00*0A
$GPGSV,3,1,12,29,65,067,35,23,06,313,,30,28,131,23,31,44,235,25*7B
$GPGSV,3,2,12,21,51,175,26,16,34,301,,10,20,060,25,23,06,313,*7D
$GPGSV,3,3,12,13,05,348,,24,61,095,31,12,02,126,,06,04,260,*7F
$GPGLL,5032.79804,N,01209.66330,E,180013.00,A,A*6E
$GPZDA,180013.00,30,07,2009,00,00*62
$GPRMC,180014.00,A,5032.77992,N,01209.66372,E,66.691,176.92,300709,,,A*50
$GPVTG,176.92,T,,M,66.691,N,123.579,K,A*03
$GPGGA,180014.00,5032.77992,N,01209.66372,E,1,03,7.92,99.8,M,47.2,M,,*6C
$GPGSA,A,2,29,21,24,,,,,,,,,,7.98,7.92,1.00*06
$GPGSV,3,1,12,29,65,067,36,23,06,313,,30,28,131,21,31,44,235,18*74
$GPGSV,3,2,12,21,51,175,26,16,34,301,,10,20,060,20,23,06,313,*78
$GPGSV,3,3,12,13,05,347,,24,61,095,33,12,02,126,,06,04,260,*72
$GPGLL,5032.77992,N,01209.66372,E,180014.00,A,A*6F
$GPZDA,180014.00,30,07,2009,00,00*65
$GPRMC,180015.00,A,5032.76102,N,01209.66662,E,67.594,176.65,300709,,,A*5A
$GPVTG,176.65,T,,M,67.594,N,125.252,K,A*04
$GPGGA,180015.00,5032.76102,N,01209.66662,E,1,03,7.91,99.8,M,47.2,M,,*6A
$GPGSA,A,2,29,21,24,,,,,,,,,,7.98,7.91,1.00*05
$GPGSV,3,1,12,29,65,067,36,23,06,313,,30,28,131,20,31,44,235,18*75
$GPGSV,3,2,12,21,51,175,27,16,34,301,,10,20,060,22,23,06,313,*7B
$GPGSV,3,3,12,13,05,347,,24,61,095,34,12,02,126,,06,04,260,*75
$GPGLL,5032.76102,N,01209.66662,E,180015.00,A,A*6A
$GPZDA,180015.00,30,07,2009,00,00*64
$GPRMC,180016.00,A,5032.73961,N,01209.67471,E,70.298,176.49,300709,,,A*53
$GPVTG,176.49,T,,M,70.298,N,130.262,K,A*00
$GPGGA,180016.00,5032.73961,N,01209.67471,E,1,03,7.92,99.7,M,47.2,M,,*6C
$GPGSA,A,2,29,21,24,,,,,,,,,,7.98,7.92,1.00*06
$GPGSV,3,1,12,29,65,067,37,23,06,313,,30,28,131,28,31,44,235,19*7D
$GPGSV,3,2,12,21,51,175,29,16,34,301,,10,20,060,28,23,06,313,*7F
$GPGSV,3,3,12,13,05,347,,24,61,095,35,12,02,126,,06,04,260,*74
$GPGLL,5032.73961,N,01209.67471,E,180016.00,A,A*60
$GPZDA,180016.00,30,07,2009,00,00*67
$GPRMC,180017.00,A,5032.71839,N,01209.68173,E,70.240,178.56,300709,,,A*51
$GPVTG,178.56,T,,M,70.240,N,130.154,K,A*03
$GPGGA,180017.00,5032.71839,N,01209.68173,E,1,03,7.93,99.6,M,47.2,M,,*6B
$GPGSA,A,2,29,21,24,,,,,,,,,,7.99,7.93,1.00*06
$GPGSV,4,1,13,29,65,067,37,23,06,313,,30,28,131,35,31,44,235,27*7A
$GPGSV,4,2,13,21,51,175,30,01,33,129,,16,35,301,,10,20,060,26*73
$GPGSV,4,3,13,23,06,313,,13,05,347,,24,61,095,37,12,02,126,*70
$GPGSV,4,4,13,06,04,260,*4D
$GPGLL,5032.71839,N,01209.68173,E,180017.00,A,A*67
$GPZDA,180017.00,30,07,2009,00,00*66
$GPRMC,180018.00,A,5032.69766,N,01209.68551,E,69.783,182.39,300709,,,A*58
$GPVTG,182.39,T,,M,69.783,N,129.308,K,A*0E
$GPGGA,180018.00,5032.69766,N,01209.68551,E,1,03,7.94,99.5,M,47.2,M,,*68
$GPGSA,A,2,29,21,24,,,,,,,,,,8.00,7.94,1.00*0E
$GPGSV,4,1,13,29,65,067,39,23,06,313,,30,28,131,35,31,44,235,22*71
$GPGSV,4,2,13,21,51,175,31,01,33,129,,16,35,301,,10,20,060,20*74
$GPGSV,4,3,13,23,06,313,,13,05,347,,24,61,095,37,12,02,126,*70
$GPGSV,4,4,13,06,04,260,*4D
$GPGLL,5032.69766,N,01209.68551,E,180018.00,A,A*60
$GPZDA,180018.00,30,07,2009,00,00*69
$GPRMC,180019.00,A,5032.67613,N,01209.69125,E,68.843,182.77,300709,,,A*5A
$GPVTG,182.77,T,,M,68.843,N,127.567,K,A*07
$GPGGA,180019.00,5032.67613,N,01209.69125,E,1,03,7.94,99.4,M,47.2,M,,*63
$GPGSA,A,2,29,21,24,,,,,,,,,,8.00,7.94,1.00*0E
$GPGSV,4,1,13,29,65,067,39,23,06,313,,30,28,131,33,31,44,235,24*71
$GPGSV,4,2,13,21,51,175,28,01,33,129,,16,35,301,,10,20,060,18*77
$GPGSV,4,3,13,23,06,313,,13,05,347,,24,61,095,36,12,02,126,26*75
$GPGSV,4,4,13,06,04,260,*4D
$GPGLL,5032.67613,N,01209.69125,E,180019.00,A,A*6A
$GPZDA,180019.00,30,07,2009,00,00*68
$GPRMC,180020.00,A,5032.65623,N,01209.68997,E,68.536,183.62,300709,,,A*5B
$GPVTG,183.62,T,,M,68.536,N,126.998,K,A*00
$GPGGA,180020.00,5032.65623,N,01209.68997,E,1,03,7.94,99.3,M,47.2,M,,*6F
$GPGSA,A,2,29,21,24,,,,,,,,,,8.00,7.94,1.00*0E
$GPGSV,4,1,13,29,65,067,36,23,06,313,,30,28,131,26,31,44,235,26*78
$GPGSV,4,2,13,21,51,175,25,01,33,129,,16,35,301,,10,20,060,18*7A
$GPGSV,4,3,13,23,06,313,,13,05,347,,24,61,095,38,12,02,126,19*77
$GPGSV,4,4,13,06,04,260,*4D
$GPGLL,5032.65623,N,01209.68997,E,180020.00,A,A*61
$GPZDA,180020.00,30,07,2009,00,00*62
$GPRMC,180021.00,A,5032.63725,N,01209.68550,E,67.751,184.90,300709,,,A*5A
$GPVTG,184.90,T,,M,67.751,N,125.544,K,A*08
$GPGGA,180021.00,5032.63725,N,01209.68550,E,1,03,7.95,99.1,M,47.2,M,,*6B
$GPGSA,A,2,29,21,24,,,,,,,,,,8.01,7.95,1.00*0E
$GPGSV,4,1,13,29,65,067,38,23,06,313,,30,28,131,26,31,44,235,21*71
$GPGSV,4,2,13,21,51,175,28,01,33,129,,16,35,301,,10,20,060,17*78
$GPGSV,4,3,13,23,06,313,,13,05,347,,24,61,095,38,12,02,126,*7F
$GPGSV,4,4,13,06,04,260,*4D
$GPGLL,5032.63725,N,01209.68550,E,180021.00,A,A*66
$GPZDA,180021.00,30,07,2009,00,00*63
$GPRMC,180022.00,A,5032.61885,N,01209.67850,E,67.188,186.58,300709,,,A*58
$GPVTG,186.58,T,,M,67.188,N,124.500,K,A*0D
$GPGGA,180022.00,5032.61885,N,01209.67850,E,1,03,7.95,98.9,M,47.2,M,,*64
$GPGSA,A,2,29,21,24,,,,,,,,,,8.02,7.95,1.00*0D
$GPGSV,4,1,13,29,65,067,38,23,06,313,,30,28,131,26,31,44,235,23*73
$GPGSV,4,2,13,21,52,175,22,01,33,129,,16,35,301,,10,20,060,22*77
$GPGSV,4,3,13,23,06,313,,13,05,347,,24,61,095,37,12,02,126,*70
$GPGSV,4,4,13,06,04,260,*4D
$GPGLL,5032.61885,N,01209.67850,E,180022.00,A,A*60
$GPZDA,180022.00,30,07,2009,00,00*60
$GPRMC,180023.00,A,5032.60122,N,01209.66859,E,66.687,188.58,300709,,,A*53
$GPVTG,188.58,T,,M,66.687,N,123.570,K,A*0A
$GPGGA,180023.00,5032.60122,N,01209.66859,E,1,03,7.96,98.7,M,47.2,M,,*65
$GPGSA,A,2,29,21,24,,,,,,,,,,8.02,7.96,1.00*0E
$GPGSV,4,1,13,29,65,067,38,23,06,313,,30,28,131,24,31,44,235,22*70
$GPGSV,4,2,13,21,52,175,18,01,33,129,,16,35,301,,10,20,060,20*7C
$GPGSV,4,3,13,23,06,313,,13,05,347,,24,61,095,37,12,02,126,*70
$GPGSV,4,4,13,06,04,260,*4D
$GPGLL,5032.60122,N,01209.66859,E,180023.00,A,A*6C
